header:
  stamp:
    sec: 1753353009
    nanosec: 808429479
  frame_id: map
child_frame_id: odom
pose:
  pose:
    position:
      x: -0.006207628175877239
      y: -0.012003202239380699
      z: -0.031206794318870006
    orientation:
      x: 0.005153497035131765
      y: -0.010535512963648519
      z: 0.00330306156521255
      w: 0.9999257643540731
  covariance:
  - 2.387338615527554e-05
  - -1.0424336442938446e-05
  - 1.1786235159202021e-07
  - 4.0934482436921903e-07
  - 3.0257540527777665e-06
  - 1.0528295798747841e-05
  - -1.0424336442937907e-05
  - 2.2510141012934957e-05
  - -1.8253601771076007e-06
  - -3.411815394898856e-06
  - 6.685481703371831e-08
  - -5.2221964148662e-07
  - 1.1786235159280795e-07
  - -1.8253601771078821e-06
  - 1.1558174042267272e-05
  - -1.1705468966631325e-06
  - 1.697581293487441e-07
  - -9.93850370430058e-07
  - 4.093448243691463e-07
  - -3.411815394898951e-06
  - -1.1705468966634624e-06
  - 2.2654952863181232e-05
  - 3.3944008026343034e-06
  - -8.619588471624417e-07
  - 3.0257540527781506e-06
  - 6.68548170338316e-08
  - 1.6975812934904454e-07
  - 3.3944008026343813e-06
  - 2.3110279152124346e-05
  - 3.910749856180671e-06
  - 1.05282957987483e-05
  - -5.222196414867128e-07
  - -9.938503704306708e-07
  - -8.619588471621205e-07
  - 3.910749856179972e-06
  - 5.2659138919523534e-05
twist:
  twist:
    linear:
      x: 0.0
      y: 0.0
      z: 0.0
    angular:
      x: 0.0
      y: 0.0
      z: 0.0
  covariance:
  - 0.0
  - 0.0
  - 0.0
  - 0.0
  - 0.0
  - 0.0
  - 0.0
  - 0.0
  - 0.0
  - 0.0
  - 0.0
  - 0.0
  - 0.0
  - 0.0
  - 0.0
  - 0.0
  - 0.0
  - 0.0
  - 0.0
  - 0.0
  - 0.0
  - 0.0
  - 0.0
  - 0.0
  - 0.0
  - 0.0
  - 0.0
  - 0.0
  - 0.0
  - 0.0
  - 0.0
  - 0.0
  - 0.0
  - 0.0
  - 0.0
  - 0.0
---
header:
  stamp:
    sec: 1753353009
    nanosec: 907569885
  frame_id: map
child_frame_id: odom
pose:
  pose:
    position:
      x: -0.007333865752943318
      y: -0.011790320773651134
      z: -0.032772583969191645
    orientation:
      x: 0.0042433319273165
      y: -0.009662924020365686
      z: 0.0017298072492333554
      w: 0.999942813264984
  covariance:
  - 1.9053039970482845e-05
  - -8.789031513350799e-06
  - -1.5636702037297932e-08
  - 8.379034976201661e-07
  - 1.7941160630953723e-06
  - 9.028794972489482e-06
  - -8.789031513350655e-06
  - 2.026678743860614e-05
  - -1.2759547482859593e-06
  - -3.2273203871630457e-06
  - 5.640922229267132e-07
  - 6.980041858789565e-07
  - -1.5636702037084824e-08
  - -1.2759547482849528e-06
  - 1.1691150778575322e-05
  - -1.2235158541491165e-06
  - 1.6196083586522432e-07
  - -1.339393220268682e-06
  - 8.379034976201815e-07
  - -3.2273203871630394e-06
  - -1.2235158541491669e-06
  - 2.2594657031727802e-05
  - 3.854547689891358e-06
  - -6.803243998190654e-07
  - 1.794116063095543e-06
  - 5.64092222926784e-07
  - 1.6196083586554958e-07
  - 3.85454768989143e-06
  - 2.338722661909008e-05
  - 3.824727152491309e-06
  - 9.028794972488845e-06
  - 6.980041858782462e-07
  - -1.3393932202697624e-06
  - -6.803243998188007e-07
  - 3.824727152490676e-06
  - 5.04681723751319e-05
twist:
  twist:
    linear:
      x: 0.0
      y: 0.0
      z: 0.0
    angular:
      x: 0.0
      y: 0.0
      z: 0.0
  covariance:
  - 0.0
  - 0.0
  - 0.0
  - 0.0
  - 0.0
  - 0.0
  - 0.0
  - 0.0
  - 0.0
  - 0.0
  - 0.0
  - 0.0
  - 0.0
  - 0.0
  - 0.0
  - 0.0
  - 0.0
  - 0.0
  - 0.0
  - 0.0
  - 0.0
  - 0.0
  - 0.0
  - 0.0
  - 0.0
  - 0.0
  - 0.0
  - 0.0
  - 0.0
  - 0.0
  - 0.0
  - 0.0
  - 0.0
  - 0.0
  - 0.0
  - 0.0
---
header:
  stamp:
    sec: 1753353010
    nanosec: 6178140
  frame_id: map
child_frame_id: odom
pose:
  pose:
    position:
      x: -0.008206024377587039
      y: -0.012786505239761228
      z: -0.032676471634382545
    orientation:
      x: 0.0030595311551955633
      y: -0.007395486269764654
      z: 0.0027295698540574834
      w: 0.9999642471109826
  covariance:
  - 1.8069528964410413e-05
  - -7.845713221491556e-06
  - 1.9207917378319692e-07
  - 8.295703546011751e-07
  - 2.220924347677956e-06
  - 8.714990285517886e-06
  - -7.845713221489247e-06
  - 1.906826047891541e-05
  - -1.2570134355246633e-06
  - -3.159273481283359e-06
  - 1.3419556510192943e-07
  - 2.305178393810386e-08
  - 1.9207917378394967e-07
  - -1.2570134355241344e-06
  - 1.1365024493454476e-05
  - -1.160201906833226e-06
  - 1.7870465890124257e-07
  - -9.190818667384754e-07
  - 8.295703546009741e-07
  - -3.1592734812835055e-06
  - -1.1602019068333926e-06
  - 2.2594300611765916e-05
  - 3.963206918781932e-06
  - -9.304622509072454e-07
  - 2.2209243476777887e-06
  - 1.3419556510186696e-07
  - 1.7870465890146105e-07
  - 3.963206918781958e-06
  - 2.2923616874594575e-05
  - 3.844789236583662e-06
  - 8.714990285516863e-06
  - 2.3051783937182287e-08
  - -9.190818667398312e-07
  - -9.304622509070881e-07
  - 3.844789236583157e-06
  - 4.740216262491464e-05
twist:
  twist:
    linear:
      x: 0.0
      y: 0.0
      z: 0.0
    angular:
      x: 0.0
      y: 0.0
      z: 0.0
  covariance:
  - 0.0
  - 0.0
  - 0.0
  - 0.0
  - 0.0
  - 0.0
  - 0.0
  - 0.0
  - 0.0
  - 0.0
  - 0.0
  - 0.0
  - 0.0
  - 0.0
  - 0.0
  - 0.0
  - 0.0
  - 0.0
  - 0.0
  - 0.0
  - 0.0
  - 0.0
  - 0.0
  - 0.0
  - 0.0
  - 0.0
  - 0.0
  - 0.0
  - 0.0
  - 0.0
  - 0.0
  - 0.0
  - 0.0
  - 0.0
  - 0.0
  - 0.0
---
header:
  stamp:
    sec: 1753353010
    nanosec: 108528375
  frame_id: map
child_frame_id: odom
pose:
  pose:
    position:
      x: -0.008387150287714713
      y: -0.013835743360135681
      z: -0.03424675879762949
    orientation:
      x: 0.002278926303045422
      y: -0.008568205992495928
      z: 0.003193103005892341
      w: 0.9999555972312211
  covariance:
  - 2.444255232538065e-05
  - -1.0617907843031568e-05
  - 3.455864534385834e-07
  - 7.763243160177856e-07
  - 3.559385952656016e-06
  - 1.083459413437089e-05
  - -1.0617907843031543e-05
  - 2.232631176198861e-05
  - -1.6266275131800872e-06
  - -3.6323752392575897e-06
  - -4.6400238956649247e-07
  - -3.3965058666771153e-07
  - 3.4558645343814114e-07
  - -1.6266275131781598e-06
  - 1.1494377979943523e-05
  - -1.246213773636823e-06
  - 3.0315840398716745e-08
  - -7.311600489362156e-07
  - 7.763243160178716e-07
  - -3.6323752392574296e-06
  - -1.246213773636528e-06
  - 2.3025840848009124e-05
  - 3.8674707592343886e-06
  - -1.1246485901380355e-06
  - 3.559385952656184e-06
  - -4.64002389566293e-07
  - 3.031584039913997e-08
  - 3.867470759234395e-06
  - 2.3162290359078984e-05
  - 3.973474098047023e-06
  - 1.083459413437091e-05
  - -3.3965058666775234e-07
  - -7.311600489368587e-07
  - -1.1246485901379337e-06
  - 3.973474098046606e-06
  - 5.002942329302556e-05
twist:
  twist:
    linear:
      x: 0.0
      y: 0.0
      z: 0.0
    angular:
      x: 0.0
      y: 0.0
      z: 0.0
  covariance:
  - 0.0
  - 0.0
  - 0.0
  - 0.0
  - 0.0
  - 0.0
  - 0.0
  - 0.0
  - 0.0
  - 0.0
  - 0.0
  - 0.0
  - 0.0
  - 0.0
  - 0.0
  - 0.0
  - 0.0
  - 0.0
  - 0.0
  - 0.0
  - 0.0
  - 0.0
  - 0.0
  - 0.0
  - 0.0
  - 0.0
  - 0.0
  - 0.0
  - 0.0
  - 0.0
  - 0.0
  - 0.0
  - 0.0
  - 0.0
  - 0.0
  - 0.0
---
header:
  stamp:
    sec: 1753353010
    nanosec: 208701610
  frame_id: map
child_frame_id: odom
pose:
  pose:
    position:
      x: -0.008375515196965942
      y: -0.011216247149257157
      z: -0.03434701012010077
    orientation:
      x: 0.0027676478665523267
      y: -0.006424809113637821
      z: 0.0024481995041306607
      w: 0.999972533758906
  covariance:
  - 1.9645081000124772e-05
  - -8.702556345096425e-06
  - 1.1943287032855343e-07
  - 9.891335579571841e-07
  - 2.5326148218043675e-06
  - 9.234567733798785e-06
  - -8.70255634509567e-06
  - 1.9337262338464098e-05
  - -1.2513862466645135e-06
  - -3.5925002403197354e-06
  - -1.7286223541860028e-07
  - 4.915686022864284e-07
  - 1.1943287032900452e-07
  - -1.251386246663668e-06
  - 1.1637359137770952e-05
  - -1.2359750057936288e-06
  - 1.762796087698792e-07
  - -1.1183391306012005e-06
  - 9.891335579572396e-07
  - -3.592500240319666e-06
  - -1.2359750057936336e-06
  - 2.317770012269227e-05
  - 4.328479577031739e-06
  - -1.2089072120098534e-06
  - 2.5326148218043293e-06
  - -1.7286223541860102e-07
  - 1.7627960877009604e-07
  - 4.3284795770317265e-06
  - 2.3573071405168514e-05
  - 3.731499975967321e-06
  - 9.234567733798267e-06
  - 4.915686022857856e-07
  - -1.1183391306024526e-06
  - -1.2089072120098056e-06
  - 3.7314999759669374e-06
  - 4.820243067053674e-05
twist:
  twist:
    linear:
      x: 0.0
      y: 0.0
      z: 0.0
    angular:
      x: 0.0
      y: 0.0
      z: 0.0
  covariance:
  - 0.0
  - 0.0
  - 0.0
  - 0.0
  - 0.0
  - 0.0
  - 0.0
  - 0.0
  - 0.0
  - 0.0
  - 0.0
  - 0.0
  - 0.0
  - 0.0
  - 0.0
  - 0.0
  - 0.0
  - 0.0
  - 0.0
  - 0.0
  - 0.0
  - 0.0
  - 0.0
  - 0.0
  - 0.0
  - 0.0
  - 0.0
  - 0.0
  - 0.0
  - 0.0
  - 0.0
  - 0.0
  - 0.0
  - 0.0
  - 0.0
  - 0.0
---
header:
  stamp:
    sec: 1753353010
    nanosec: 308681726
  frame_id: map
child_frame_id: odom
pose:
  pose:
    position:
      x: -0.009228924056164317
      y: -0.013377736170282942
      z: -0.030417555018945566
    orientation:
      x: 0.002912439796855953
      y: -0.0060307816163388825
      z: 0.002102207527644157
      w: 0.999975363741985
  covariance:
  - 1.8906987500347476e-05
  - -8.655825038145157e-06
  - 2.553269256306866e-07
  - 1.1251993868472753e-06
  - 2.0351676807742437e-06
  - 8.127814822150487e-06
  - -8.655825038143236e-06
  - 1.962637294139536e-05
  - -1.3592620266050483e-06
  - -3.5531164249531825e-06
  - -3.18046909867986e-08
  - 6.056482749978344e-07
  - 2.553269256327981e-07
  - -1.359262026606593e-06
  - 1.1461783464253642e-05
  - -1.2176141410396974e-06
  - 3.347009350299411e-07
  - -9.918745806353373e-07
  - 1.1251993868472675e-06
  - -3.553116424953308e-06
  - -1.2176141410403407e-06
  - 2.3056339484074388e-05
  - 4.263073044167821e-06
  - -1.278471784508225e-06
  - 2.035167680774104e-06
  - -3.180469098686784e-08
  - 3.347009350300369e-07
  - 4.263073044167801e-06
  - 2.3410799672259554e-05
  - 3.1693025045208165e-06
  - 8.127814822149756e-06
  - 6.056482749972395e-07
  - -9.918745806362927e-07
  - -1.2784717845081849e-06
  - 3.1693025045204485e-06
  - 4.7674165708950405e-05
twist:
  twist:
    linear:
      x: 0.0
      y: 0.0
      z: 0.0
    angular:
      x: 0.0
      y: 0.0
      z: 0.0
  covariance:
  - 0.0
  - 0.0
  - 0.0
  - 0.0
  - 0.0
  - 0.0
  - 0.0
  - 0.0
  - 0.0
  - 0.0
  - 0.0
  - 0.0
  - 0.0
  - 0.0
  - 0.0
  - 0.0
  - 0.0
  - 0.0
  - 0.0
  - 0.0
  - 0.0
  - 0.0
  - 0.0
  - 0.0
  - 0.0
  - 0.0
  - 0.0
  - 0.0
  - 0.0
  - 0.0
  - 0.0
  - 0.0
  - 0.0
  - 0.0
  - 0.0
  - 0.0
---
header:
  stamp:
    sec: 1753353010
    nanosec: 408428192
  frame_id: map
child_frame_id: odom
pose:
  pose:
    position:
      x: -0.008145048486725289
      y: -0.013926353083469735
      z: -0.030646623953506487
    orientation:
      x: 0.0031972930116473198
      y: -0.008275459557732864
      z: 0.0023141817297762943
      w: 0.9999579684413272
  covariance:
  - 1.866688192561997e-05
  - -9.24566296686296e-06
  - 6.287679871177758e-07
  - 1.2667485602183533e-06
  - 1.7868914918597585e-06
  - 9.073462874828223e-06
  - -9.245662966863428e-06
  - 2.1720426187102823e-05
  - -1.7360197093020712e-06
  - -3.5667598308665076e-06
  - 1.3126579953683682e-07
  - -1.9061477118201005e-07
  - 6.287679871175951e-07
  - -1.736019709301173e-06
  - 1.1494820922322635e-05
  - -1.269129303099748e-06
  - 1.6135270342812328e-07
  - -7.348551483937545e-07
  - 1.2667485602184367e-06
  - -3.5667598308664457e-06
  - -1.2691293030997605e-06
  - 2.309285937269394e-05
  - 3.92680337772388e-06
  - -6.002711841313825e-07
  - 1.7868914918603216e-06
  - 1.3126579953727812e-07
  - 1.6135270342863876e-07
  - 3.926803377723869e-06
  - 2.307686959483821e-05
  - 3.138514132974989e-06
  - 9.07346287483067e-06
  - -1.9061477118039889e-07
  - -7.348551483933504e-07
  - -6.002711841312895e-07
  - 3.1385141329745823e-06
  - 4.8866884737489355e-05
twist:
  twist:
    linear:
      x: 0.0
      y: 0.0
      z: 0.0
    angular:
      x: 0.0
      y: 0.0
      z: 0.0
  covariance:
  - 0.0
  - 0.0
  - 0.0
  - 0.0
  - 0.0
  - 0.0
  - 0.0
  - 0.0
  - 0.0
  - 0.0
  - 0.0
  - 0.0
  - 0.0
  - 0.0
  - 0.0
  - 0.0
  - 0.0
  - 0.0
  - 0.0
  - 0.0
  - 0.0
  - 0.0
  - 0.0
  - 0.0
  - 0.0
  - 0.0
  - 0.0
  - 0.0
  - 0.0
  - 0.0
  - 0.0
  - 0.0
  - 0.0
  - 0.0
  - 0.0
  - 0.0
---
header:
  stamp:
    sec: 1753353010
    nanosec: 508440971
  frame_id: map
child_frame_id: odom
pose:
  pose:
    position:
      x: -0.008284743631006002
      y: -0.011779167778215261
      z: -0.029459610919311038
    orientation:
      x: 0.004554376009278196
      y: -0.007721827427216402
      z: 0.002386242718595133
      w: 0.9999569675170614
  covariance:
  - 2.3011331169052183e-05
  - -9.899168757155117e-06
  - -1.7993112084494277e-07
  - 6.564796759133346e-07
  - 3.287659982143097e-06
  - 8.263871178923152e-06
  - -9.899168757154882e-06
  - 2.1531258795414373e-05
  - -1.4053406274433885e-06
  - -3.7542516229106246e-06
  - 5.7829942854163784e-08
  - 8.586531856573315e-07
  - -1.7993112084501117e-07
  - -1.405340627442495e-06
  - 1.1571140555048186e-05
  - -1.1476958419925277e-06
  - 4.547954260401029e-08
  - -1.1049350154104568e-06
  - 6.564796759133932e-07
  - -3.7542516229105704e-06
  - -1.147695841992455e-06
  - 2.308662071035897e-05
  - 3.829727611923254e-06
  - -1.1428963552861137e-06
  - 3.28765998214334e-06
  - 5.782994285432472e-08
  - 4.547954260439963e-08
  - 3.829727611923267e-06
  - 2.343079228755333e-05
  - 3.5519049153563272e-06
  - 8.263871178923424e-06
  - 8.586531856572432e-07
  - -1.1049350154110224e-06
  - -1.1428963552859877e-06
  - 3.551904915355892e-06
  - 4.961627929774677e-05
twist:
  twist:
    linear:
      x: 0.0
      y: 0.0
      z: 0.0
    angular:
      x: 0.0
      y: 0.0
      z: 0.0
  covariance:
  - 0.0
  - 0.0
  - 0.0
  - 0.0
  - 0.0
  - 0.0
  - 0.0
  - 0.0
  - 0.0
  - 0.0
  - 0.0
  - 0.0
  - 0.0
  - 0.0
  - 0.0
  - 0.0
  - 0.0
  - 0.0
  - 0.0
  - 0.0
  - 0.0
  - 0.0
  - 0.0
  - 0.0
  - 0.0
  - 0.0
  - 0.0
  - 0.0
  - 0.0
  - 0.0
  - 0.0
  - 0.0
  - 0.0
  - 0.0
  - 0.0
  - 0.0
---
header:
  stamp:
    sec: 1753353010
    nanosec: 608495950
  frame_id: map
child_frame_id: odom
pose:
  pose:
    position:
      x: -0.00965236640420988
      y: -0.01549684174661096
      z: -0.026131270048084968
    orientation:
      x: 0.004077461602529323
      y: -0.0069642285439970595
      z: 0.0017297500533999667
      w: 0.9999659403161185
  covariance:
  - 2.0033172246415938e-05
  - -9.026177166883782e-06
  - 1.4751447049833796e-07
  - 5.515580028868612e-07
  - 1.7488896789513424e-06
  - 8.140390201288302e-06
  - -9.026177166880756e-06
  - 2.0609653578523406e-05
  - -1.4695427016554356e-06
  - -3.24990718655124e-06
  - 6.056578825416677e-07
  - 1.3820130383781614e-06
  - 1.4751447049948566e-07
  - -1.4695427016550947e-06
  - 1.1815716916042476e-05
  - -1.2348229264695112e-06
  - 3.371944877247269e-07
  - -1.2088325087730454e-06
  - 5.51558002886839e-07
  - -3.2499071865512757e-06
  - -1.2348229264693625e-06
  - 2.312653245431581e-05
  - 4.077745454047333e-06
  - -1.2431873204606372e-06
  - 1.7488896789512476e-06
  - 6.056578825416333e-07
  - 3.3719448772493594e-07
  - 4.0777454540473575e-06
  - 2.3912019820325246e-05
  - 3.2560085327854484e-06
  - 8.140390201289208e-06
  - 1.3820130383788742e-06
  - -1.2088325087731377e-06
  - -1.24318732046045e-06
  - 3.256008532784913e-06
  - 4.9203560928703845e-05
twist:
  twist:
    linear:
      x: 0.0
      y: 0.0
      z: 0.0
    angular:
      x: 0.0
      y: 0.0
      z: 0.0
  covariance:
  - 0.0
  - 0.0
  - 0.0
  - 0.0
  - 0.0
  - 0.0
  - 0.0
  - 0.0
  - 0.0
  - 0.0
  - 0.0
  - 0.0
  - 0.0
  - 0.0
  - 0.0
  - 0.0
  - 0.0
  - 0.0
  - 0.0
  - 0.0
  - 0.0
  - 0.0
  - 0.0
  - 0.0
  - 0.0
  - 0.0
  - 0.0
  - 0.0
  - 0.0
  - 0.0
  - 0.0
  - 0.0
  - 0.0
  - 0.0
  - 0.0
  - 0.0
---
header:
  stamp:
    sec: 1753353010
    nanosec: 708024978
  frame_id: map
child_frame_id: odom
pose:
  pose:
    position:
      x: -0.009667708618815692
      y: -0.017703037211080686
      z: -0.025950350053302887
    orientation:
      x: 0.003207274277000219
      y: -0.007226570373831791
      z: 0.0019576972449577225
      w: 0.9999668281966759
  covariance:
  - 1.646404096304834e-05
  - -7.079604856465702e-06
  - 1.2843391317691085e-07
  - 7.893201015980156e-07
  - 1.8045148993388932e-06
  - 7.702038471813454e-06
  - -7.079604856466669e-06
  - 1.8294983282128562e-05
  - -1.1521473642445338e-06
  - -2.8114793137850622e-06
  - 3.145285089517313e-07
  - 2.079250992246784e-06
  - 1.2843391317664179e-07
  - -1.1521473642432611e-06
  - 1.1569841777903916e-05
  - -1.40628646392622e-06
  - -1.4359078493396872e-08
  - -1.1849041314150024e-06
  - 7.893201015981685e-07
  - -2.811479313784954e-06
  - -1.406286463926114e-06
  - 2.2832748285621547e-05
  - 3.895534305725523e-06
  - -1.1152699216338638e-06
  - 1.8045148993394309e-06
  - 3.145285089520972e-07
  - -1.4359078492898658e-08
  - 3.895534305725544e-06
  - 2.3101224037345263e-05
  - 3.581149509487389e-06
  - 7.702038471814793e-06
  - 2.079250992247684e-06
  - -1.1849041314149717e-06
  - -1.1152699216336401e-06
  - 3.58114950948683e-06
  - 4.730677773524918e-05
twist:
  twist:
    linear:
      x: 0.0
      y: 0.0
      z: 0.0
    angular:
      x: 0.0
      y: 0.0
      z: 0.0
  covariance:
  - 0.0
  - 0.0
  - 0.0
  - 0.0
  - 0.0
  - 0.0
  - 0.0
  - 0.0
  - 0.0
  - 0.0
  - 0.0
  - 0.0
  - 0.0
  - 0.0
  - 0.0
  - 0.0
  - 0.0
  - 0.0
  - 0.0
  - 0.0
  - 0.0
  - 0.0
  - 0.0
  - 0.0
  - 0.0
  - 0.0
  - 0.0
  - 0.0
  - 0.0
  - 0.0
  - 0.0
  - 0.0
  - 0.0
  - 0.0
  - 0.0
  - 0.0
---
header:
  stamp:
    sec: 1753353010
    nanosec: 807157754
  frame_id: map
child_frame_id: odom
pose:
  pose:
    position:
      x: -0.007533418960399296
      y: -0.0176224323914457
      z: -0.028023113595932583
    orientation:
      x: 0.0031332781582040156
      y: -0.007867988588653764
      z: 0.002469638370190967
      w: 0.9999610883478175
  covariance:
  - 2.4168628069181478e-05
  - -9.885022376707437e-06
  - 3.559536209365179e-07
  - 4.848628606856287e-07
  - 3.1162139721255864e-06
  - 1.0381608361633637e-05
  - -9.88502237670755e-06
  - 2.200672728799901e-05
  - -1.794458699369578e-06
  - -3.330759001843524e-06
  - -2.5079340135925493e-08
  - -5.50615942697299e-07
  - 3.5595362093597e-07
  - -1.7944586993677658e-06
  - 1.1452818787230723e-05
  - -1.1499684458130794e-06
  - 2.4341091783445395e-07
  - -7.87907161046228e-07
  - 4.848628606856652e-07
  - -3.3307590018434222e-06
  - -1.1499684458128677e-06
  - 2.2599214692460304e-05
  - 3.7805335010857866e-06
  - -6.822330483815923e-07
  - 3.1162139721258773e-06
  - -2.5079340135782556e-08
  - 2.434109178348779e-07
  - 3.7805335010858183e-06
  - 2.3183648238301787e-05
  - 3.86564177368639e-06
  - 1.038160836163381e-05
  - -5.506159426973596e-07
  - -7.879071610468393e-07
  - -6.822330483813785e-07
  - 3.865641773685836e-06
  - 4.9505239431793065e-05
twist:
  twist:
    linear:
      x: 0.0
      y: 0.0
      z: 0.0
    angular:
      x: 0.0
      y: 0.0
      z: 0.0
  covariance:
  - 0.0
  - 0.0
  - 0.0
  - 0.0
  - 0.0
  - 0.0
  - 0.0
  - 0.0
  - 0.0
  - 0.0
  - 0.0
  - 0.0
  - 0.0
  - 0.0
  - 0.0
  - 0.0
  - 0.0
  - 0.0
  - 0.0
  - 0.0
  - 0.0
  - 0.0
  - 0.0
  - 0.0
  - 0.0
  - 0.0
  - 0.0
  - 0.0
  - 0.0
  - 0.0
  - 0.0
  - 0.0
  - 0.0
  - 0.0
  - 0.0
  - 0.0
---
header:
  stamp:
    sec: 1753353010
    nanosec: 906135559
  frame_id: map
child_frame_id: odom
pose:
  pose:
    position:
      x: -0.009746310285642651
      y: -0.015836569518110067
      z: -0.0304276647085367
    orientation:
      x: 0.003139608419105193
      y: -0.007702119620677531
      z: 0.0027330327674797866
      w: 0.9999616746376302
  covariance:
  - 2.184577387897565e-05
  - -1.0762851148691754e-05
  - 2.4842106418453157e-07
  - 1.1645745936627697e-06
  - 2.321480382079506e-06
  - 9.295692988251755e-06
  - -1.07628511486916e-05
  - 2.2180046551778587e-05
  - -1.5123779502231025e-06
  - -3.6809535870555546e-06
  - -1.255925614511104e-07
  - -3.7694636882387687e-07
  - 2.484210641845924e-07
  - -1.512377950222204e-06
  - 1.1669740033436e-05
  - -1.2290629136495e-06
  - 2.799102253963079e-07
  - -8.905110426282957e-07
  - 1.164574593662801e-06
  - -3.680953587055475e-06
  - -1.229062913649442e-06
  - 2.2660539138278743e-05
  - 3.897465731844427e-06
  - -7.89248687897876e-07
  - 2.3214803820797684e-06
  - -1.255925614509626e-07
  - 2.799102253966611e-07
  - 3.897465731844468e-06
  - 2.312860237825816e-05
  - 3.552673357943718e-06
  - 9.29569298825187e-06
  - -3.769463688239606e-07
  - -8.905110426288788e-07
  - -7.89248687897672e-07
  - 3.5526733579431844e-06
  - 5.121110841576388e-05
twist:
  twist:
    linear:
      x: 0.0
      y: 0.0
      z: 0.0
    angular:
      x: 0.0
      y: 0.0
      z: 0.0
  covariance:
  - 0.0
  - 0.0
  - 0.0
  - 0.0
  - 0.0
  - 0.0
  - 0.0
  - 0.0
  - 0.0
  - 0.0
  - 0.0
  - 0.0
  - 0.0
  - 0.0
  - 0.0
  - 0.0
  - 0.0
  - 0.0
  - 0.0
  - 0.0
  - 0.0
  - 0.0
  - 0.0
  - 0.0
  - 0.0
  - 0.0
  - 0.0
  - 0.0
  - 0.0
  - 0.0
  - 0.0
  - 0.0
  - 0.0
  - 0.0
  - 0.0
  - 0.0
---
header:
  stamp:
    sec: 1753353011
    nanosec: 6480693
  frame_id: map
child_frame_id: odom
pose:
  pose:
    position:
      x: -0.008136769996619919
      y: -0.015280000595033354
      z: -0.02923785876760143
    orientation:
      x: 0.004611972891859383
      y: -0.00784918879606635
      z: 0.0022315102553159775
      w: 0.9999560691866153
  covariance:
  - 1.9168377688408757e-05
  - -7.1580872840195454e-06
  - -3.177706366273548e-07
  - 5.18619850287409e-07
  - 2.3411733553017035e-06
  - 9.540706779948827e-06
  - -7.15808728401947e-06
  - 1.9517264041698245e-05
  - -1.3904525170703174e-06
  - -3.4264248565630104e-06
  - 4.13705532437618e-07
  - 4.912870886684304e-07
  - -3.1777063662751673e-07
  - -1.3904525170691447e-06
  - 1.1544657344839683e-05
  - -1.0970513108259565e-06
  - 1.7616147197964646e-07
  - -1.3425341986155556e-06
  - 5.186198502874315e-07
  - -3.4264248565629325e-06
  - -1.097051310825895e-06
  - 2.2681647732248546e-05
  - 3.4582114427494285e-06
  - -7.463880284839764e-07
  - 2.3411733553019233e-06
  - 4.137055324377602e-07
  - 1.761614719800453e-07
  - 3.4582114427494556e-06
  - 2.2873120524371722e-05
  - 3.683220219472737e-06
  - 9.5407067799489e-06
  - 4.912870886684059e-07
  - -1.3425341986160261e-06
  - -7.463880284837963e-07
  - 3.68322021947224e-06
  - 4.952562224378316e-05
twist:
  twist:
    linear:
      x: 0.0
      y: 0.0
      z: 0.0
    angular:
      x: 0.0
      y: 0.0
      z: 0.0
  covariance:
  - 0.0
  - 0.0
  - 0.0
  - 0.0
  - 0.0
  - 0.0
  - 0.0
  - 0.0
  - 0.0
  - 0.0
  - 0.0
  - 0.0
  - 0.0
  - 0.0
  - 0.0
  - 0.0
  - 0.0
  - 0.0
  - 0.0
  - 0.0
  - 0.0
  - 0.0
  - 0.0
  - 0.0
  - 0.0
  - 0.0
  - 0.0
  - 0.0
  - 0.0
  - 0.0
  - 0.0
  - 0.0
  - 0.0
  - 0.0
  - 0.0
  - 0.0
---
header:
  stamp:
    sec: 1753353011
    nanosec: 108490943
  frame_id: map
child_frame_id: odom
pose:
  pose:
    position:
      x: -0.007608582613312071
      y: -0.015128784528153685
      z: -0.028998897285657063
    orientation:
      x: 0.003990583508911522
      y: -0.00788185432050767
      z: 0.0023422806164738485
      w: 0.9999582317962687
  covariance:
  - 2.0466786133324077e-05
  - -8.904830472401192e-06
  - 4.3682297790734393e-07
  - 7.994018372772203e-07
  - 2.4598366099820105e-06
  - 9.660239313205919e-06
  - -8.904830472400868e-06
  - 2.0932385891559784e-05
  - -1.7025104086577328e-06
  - -3.3971669311364137e-06
  - -9.96230357882445e-08
  - -9.366116281565057e-09
  - 4.368229779077097e-07
  - -1.7025104086571287e-06
  - 1.1687792538168853e-05
  - -1.1556184198850982e-06
  - 2.059490352100256e-07
  - -8.315030344693116e-07
  - 7.994018372772287e-07
  - -3.3971669311364107e-06
  - -1.1556184198852174e-06
  - 2.2838614930007692e-05
  - 3.929170004247386e-06
  - -8.71245658280094e-07
  - 2.4598366099822095e-06
  - -9.962303578810199e-08
  - 2.0594903521039479e-07
  - 3.9291700042474035e-06
  - 2.3144316114891134e-05
  - 3.4747313292817532e-06
  - 9.66023931320594e-06
  - -9.366116281658549e-09
  - -8.315030344699533e-07
  - -8.712456582799434e-07
  - 3.4747313292812924e-06
  - 4.981822774985067e-05
twist:
  twist:
    linear:
      x: 0.0
      y: 0.0
      z: 0.0
    angular:
      x: 0.0
      y: 0.0
      z: 0.0
  covariance:
  - 0.0
  - 0.0
  - 0.0
  - 0.0
  - 0.0
  - 0.0
  - 0.0
  - 0.0
  - 0.0
  - 0.0
  - 0.0
  - 0.0
  - 0.0
  - 0.0
  - 0.0
  - 0.0
  - 0.0
  - 0.0
  - 0.0
  - 0.0
  - 0.0
  - 0.0
  - 0.0
  - 0.0
  - 0.0
  - 0.0
  - 0.0
  - 0.0
  - 0.0
  - 0.0
  - 0.0
  - 0.0
  - 0.0
  - 0.0
  - 0.0
  - 0.0
---
header:
  stamp:
    sec: 1753353011
    nanosec: 208367586
  frame_id: map
child_frame_id: odom
pose:
  pose:
    position:
      x: -0.008020132024431144
      y: -0.011844955774807079
      z: -0.02719607055701859
    orientation:
      x: 0.004402511113275567
      y: -0.0074766371716532875
      z: 0.002507592545913648
      w: 0.999959214054255
  covariance:
  - 1.921801253686848e-05
  - -7.595295354216449e-06
  - -1.4150055345592891e-07
  - 4.949729731861002e-07
  - 2.678236689209479e-06
  - 9.331078254656586e-06
  - -7.595295354216998e-06
  - 1.906845596364906e-05
  - -1.2875500048141914e-06
  - -3.3340577539558025e-06
  - 6.070670182517798e-08
  - 6.344172610726652e-07
  - -1.4150055345610002e-07
  - -1.2875500048129323e-06
  - 1.151177608681482e-05
  - -1.193388045188176e-06
  - 9.161374998617762e-08
  - -1.172518413884658e-06
  - 4.949729731864374e-07
  - -3.334057753955515e-06
  - -1.193388045187841e-06
  - 2.2833960906291273e-05
  - 3.7768325539925157e-06
  - -1.362304884658895e-06
  - 2.678236689209506e-06
  - 6.07067018251729e-08
  - 9.161374998644947e-08
  - 3.7768325539925407e-06
  - 2.317516533343768e-05
  - 3.6389828726429682e-06
  - 9.331078254655139e-06
  - 6.344172610716326e-07
  - -1.172518413886126e-06
  - -1.3623048846587926e-06
  - 3.638982872642588e-06
  - 4.976960156615925e-05
twist:
  twist:
    linear:
      x: 0.0
      y: 0.0
      z: 0.0
    angular:
      x: 0.0
      y: 0.0
      z: 0.0
  covariance:
  - 0.0
  - 0.0
  - 0.0
  - 0.0
  - 0.0
  - 0.0
  - 0.0
  - 0.0
  - 0.0
  - 0.0
  - 0.0
  - 0.0
  - 0.0
  - 0.0
  - 0.0
  - 0.0
  - 0.0
  - 0.0
  - 0.0
  - 0.0
  - 0.0
  - 0.0
  - 0.0
  - 0.0
  - 0.0
  - 0.0
  - 0.0
  - 0.0
  - 0.0
  - 0.0
  - 0.0
  - 0.0
  - 0.0
  - 0.0
  - 0.0
  - 0.0
---
header:
  stamp:
    sec: 1753353011
    nanosec: 307475805
  frame_id: map
child_frame_id: odom
pose:
  pose:
    position:
      x: -0.009455734342216037
      y: -0.014792672276745586
      z: -0.0246239576611487
    orientation:
      x: 0.0032884659275551373
      y: -0.006791098387318975
      z: 0.002053100452116251
      w: 0.999969425409072
  covariance:
  - 1.8957278512230492e-05
  - -7.674751296172184e-06
  - -2.0921543229628965e-07
  - 4.979802941614503e-07
  - 2.0974297127213348e-06
  - 7.88147817900341e-06
  - -7.674751296172044e-06
  - 1.9933601310598624e-05
  - -1.3154211146572805e-06
  - -3.4620156452386515e-06
  - 5.626935574521889e-07
  - 8.652038367265742e-07
  - -2.0921543229631295e-07
  - -1.3154211146561395e-06
  - 1.1599317447147875e-05
  - -1.0904702470430404e-06
  - 3.1168926824662783e-07
  - -1.1128953774926352e-06
  - 4.979802941615244e-07
  - -3.46201564523857e-06
  - -1.09047024704288e-06
  - 2.289468926924778e-05
  - 3.7257424537147644e-06
  - -7.957537051167291e-07
  - 2.0974297127215707e-06
  - 5.6269355745235e-07
  - 3.1168926824701513e-07
  - 3.7257424537147843e-06
  - 2.3445871510796103e-05
  - 3.800734182065181e-06
  - 7.881478179003394e-06
  - 8.652038367265356e-07
  - -1.1128953774932447e-06
  - -7.95753705116637e-07
  - 3.800734182064812e-06
  - 5.0655980896967826e-05
twist:
  twist:
    linear:
      x: 0.0
      y: 0.0
      z: 0.0
    angular:
      x: 0.0
      y: 0.0
      z: 0.0
  covariance:
  - 0.0
  - 0.0
  - 0.0
  - 0.0
  - 0.0
  - 0.0
  - 0.0
  - 0.0
  - 0.0
  - 0.0
  - 0.0
  - 0.0
  - 0.0
  - 0.0
  - 0.0
  - 0.0
  - 0.0
  - 0.0
  - 0.0
  - 0.0
  - 0.0
  - 0.0
  - 0.0
  - 0.0
  - 0.0
  - 0.0
  - 0.0
  - 0.0
  - 0.0
  - 0.0
  - 0.0
  - 0.0
  - 0.0
  - 0.0
  - 0.0
  - 0.0
---
header:
  stamp:
    sec: 1753353011
    nanosec: 408622026
  frame_id: map
child_frame_id: odom
pose:
  pose:
    position:
      x: -0.0062305547800078015
      y: -0.014531634860159843
      z: -0.02796723639366379
    orientation:
      x: 0.004881989597595195
      y: -0.008160166890090945
      z: 0.0024858603721774094
      w: 0.9999516980094504
  covariance:
  - 2.2428474409195463e-05
  - -8.790087442732263e-06
  - -4.1667865294683855e-07
  - 3.6041792430633257e-07
  - 2.8485630582914867e-06
  - 9.76293049221764e-06
  - -8.790087442731967e-06
  - 2.0285370037055088e-05
  - -1.3764377047336902e-06
  - -3.151636247657787e-06
  - 2.7305759946541476e-07
  - 1.1141279808325143e-08
  - -4.166786529465588e-07
  - -1.3764377047327646e-06
  - 1.1681770037754717e-05
  - -1.2092012859688008e-06
  - -1.174893439628092e-07
  - -1.174156302171729e-06
  - 3.6041792430635597e-07
  - -3.1516362476577257e-06
  - -1.2092012859687832e-06
  - 2.2725966105174623e-05
  - 3.5202553752308673e-06
  - -4.408617079110412e-07
  - 2.848563058291691e-06
  - 2.7305759946556e-07
  - -1.1748934396248235e-07
  - 3.5202553752308775e-06
  - 2.2950677856949332e-05
  - 3.88792854548679e-06
  - 9.76293049221773e-06
  - 1.1141279808285332e-08
  - -1.1741563021723985e-06
  - -4.4086170791095036e-07
  - 3.887928545486402e-06
  - 5.069257166757811e-05
twist:
  twist:
    linear:
      x: 0.0
      y: 0.0
      z: 0.0
    angular:
      x: 0.0
      y: 0.0
      z: 0.0
  covariance:
  - 0.0
  - 0.0
  - 0.0
  - 0.0
  - 0.0
  - 0.0
  - 0.0
  - 0.0
  - 0.0
  - 0.0
  - 0.0
  - 0.0
  - 0.0
  - 0.0
  - 0.0
  - 0.0
  - 0.0
  - 0.0
  - 0.0
  - 0.0
  - 0.0
  - 0.0
  - 0.0
  - 0.0
  - 0.0
  - 0.0
  - 0.0
  - 0.0
  - 0.0
  - 0.0
  - 0.0
  - 0.0
  - 0.0
  - 0.0
  - 0.0
  - 0.0
---
header:
  stamp:
    sec: 1753353011
    nanosec: 508674860
  frame_id: map
child_frame_id: odom
pose:
  pose:
    position:
      x: -0.005317824324816744
      y: -0.014950765105205911
      z: -0.030940649946911033
    orientation:
      x: 0.004814418617390828
      y: -0.01009063197825064
      z: 0.0028121200660746557
      w: 0.9999335440419367
  covariance:
  - 2.0147441893921752e-05
  - -9.508429907418805e-06
  - 4.5299694778187185e-07
  - 7.82721989510706e-07
  - 2.3681193580686943e-06
  - 1.0844220743095584e-05
  - -9.508429907419232e-06
  - 2.146288351516552e-05
  - -1.693116054792553e-06
  - -3.342366303496672e-06
  - 8.005523029757125e-08
  - 1.717768331226587e-07
  - 4.5299694778018726e-07
  - -1.6931160547888993e-06
  - 1.144447996717763e-05
  - -1.1716152494760449e-06
  - 3.1057104691220164e-07
  - -1.1273859577213434e-06
  - 7.827219895107429e-07
  - -3.3423663034964683e-06
  - -1.1716152494754666e-06
  - 2.298684827145163e-05
  - 3.802843862276349e-06
  - -9.035096235289314e-07
  - 2.368119358068467e-06
  - 8.005523029740629e-08
  - 3.105710469125014e-07
  - 3.80284386227636e-06
  - 2.30419162109832e-05
  - 4.174818096658034e-06
  - 1.0844220743091832e-05
  - 1.7177683311976664e-07
  - -1.1273859577243751e-06
  - -9.035096235288924e-07
  - 4.174818096657717e-06
  - 5.1948708129010167e-05
twist:
  twist:
    linear:
      x: 0.0
      y: 0.0
      z: 0.0
    angular:
      x: 0.0
      y: 0.0
      z: 0.0
  covariance:
  - 0.0
  - 0.0
  - 0.0
  - 0.0
  - 0.0
  - 0.0
  - 0.0
  - 0.0
  - 0.0
  - 0.0
  - 0.0
  - 0.0
  - 0.0
  - 0.0
  - 0.0
  - 0.0
  - 0.0
  - 0.0
  - 0.0
  - 0.0
  - 0.0
  - 0.0
  - 0.0
  - 0.0
  - 0.0
  - 0.0
  - 0.0
  - 0.0
  - 0.0
  - 0.0
  - 0.0
  - 0.0
  - 0.0
  - 0.0
  - 0.0
  - 0.0
---
header:
  stamp:
    sec: 1753353011
    nanosec: 608513832
  frame_id: map
child_frame_id: odom
pose:
  pose:
    position:
      x: -0.004988383924154389
      y: -0.014652086621242611
      z: -0.03362506776562426
    orientation:
      x: 0.002486987992305918
      y: -0.007946518789991816
      z: 0.002459640985802046
      w: 0.9999623082376383
  covariance:
  - 2.4782708646188843e-05
  - -1.1586178422068468e-05
  - -1.2896494587133215e-07
  - 4.6029042478777966e-07
  - 2.6534712180331957e-06
  - 1.0967121883672563e-05
  - -1.1586178422068157e-05
  - 2.236563390641913e-05
  - -1.2342016863829474e-06
  - -3.4297597893197112e-06
  - 1.2338821586726907e-07
  - -3.247805327956665e-07
  - -1.2896494587129854e-07
  - -1.2342016863818898e-06
  - 1.1675518910653453e-05
  - -1.126784300834179e-06
  - 2.985494093489358e-07
  - -1.1660225794985018e-06
  - 4.6029042478783144e-07
  - -3.42975978931967e-06
  - -1.1267843008341243e-06
  - 2.3162234342855514e-05
  - 4.268636089822761e-06
  - -1.3508670534399539e-06
  - 2.653471218033339e-06
  - 1.2338821586742175e-07
  - 2.9854940934933736e-07
  - 4.268636089822755e-06
  - 2.3747813985939648e-05
  - 3.961097378410632e-06
  - 1.096712188367238e-05
  - -3.2478053279563774e-07
  - -1.1660225794990866e-06
  - -1.350867053439914e-06
  - 3.961097378410329e-06
  - 5.353257986747243e-05
twist:
  twist:
    linear:
      x: 0.0
      y: 0.0
      z: 0.0
    angular:
      x: 0.0
      y: 0.0
      z: 0.0
  covariance:
  - 0.0
  - 0.0
  - 0.0
  - 0.0
  - 0.0
  - 0.0
  - 0.0
  - 0.0
  - 0.0
  - 0.0
  - 0.0
  - 0.0
  - 0.0
  - 0.0
  - 0.0
  - 0.0
  - 0.0
  - 0.0
  - 0.0
  - 0.0
  - 0.0
  - 0.0
  - 0.0
  - 0.0
  - 0.0
  - 0.0
  - 0.0
  - 0.0
  - 0.0
  - 0.0
  - 0.0
  - 0.0
  - 0.0
  - 0.0
  - 0.0
  - 0.0
---
header:
  stamp:
    sec: 1753353011
    nanosec: 708496809
  frame_id: map
child_frame_id: odom
pose:
  pose:
    position:
      x: -0.0071188044629718955
      y: -0.015666072904012143
      z: -0.036566852754338006
    orientation:
      x: 0.005356756703578054
      y: -0.00869351682517939
      z: 0.001729152691164184
      w: 0.999946367538619
  covariance:
  - 2.0944729748220586e-05
  - -9.063630835452021e-06
  - -7.884712450824313e-08
  - 8.616922835839158e-07
  - 2.5824224437278514e-06
  - 9.023511175078022e-06
  - -9.063630835450476e-06
  - 2.0259913042055655e-05
  - -1.2781997197328915e-06
  - -3.0521903078562714e-06
  - 4.5410866331277814e-08
  - 5.374367184155519e-07
  - -7.884712450766653e-08
  - -1.2781997197330683e-06
  - 1.1619954106356914e-05
  - -1.2730333897324135e-06
  - 1.2299227845700797e-07
  - -1.1776653089441232e-06
  - 8.616922835836113e-07
  - -3.0521903078565357e-06
  - -1.2730333897326147e-06
  - 2.2524764843347635e-05
  - 3.884735175846957e-06
  - -5.22398136610594e-07
  - 2.582422443728329e-06
  - 4.541086633168333e-08
  - 1.2299227845750523e-07
  - 3.88473517584693e-06
  - 2.3190557408327598e-05
  - 3.962990714199852e-06
  - 9.023511175080271e-06
  - 5.37436718417212e-07
  - -1.1776653089433892e-06
  - -5.22398136610522e-07
  - 3.962990714199457e-06
  - 5.0801037936128316e-05
twist:
  twist:
    linear:
      x: 0.0
      y: 0.0
      z: 0.0
    angular:
      x: 0.0
      y: 0.0
      z: 0.0
  covariance:
  - 0.0
  - 0.0
  - 0.0
  - 0.0
  - 0.0
  - 0.0
  - 0.0
  - 0.0
  - 0.0
  - 0.0
  - 0.0
  - 0.0
  - 0.0
  - 0.0
  - 0.0
  - 0.0
  - 0.0
  - 0.0
  - 0.0
  - 0.0
  - 0.0
  - 0.0
  - 0.0
  - 0.0
  - 0.0
  - 0.0
  - 0.0
  - 0.0
  - 0.0
  - 0.0
  - 0.0
  - 0.0
  - 0.0
  - 0.0
  - 0.0
  - 0.0
---
header:
  stamp:
    sec: 1753353011
    nanosec: 807397603
  frame_id: map
child_frame_id: odom
pose:
  pose:
    position:
      x: -0.006721194606988675
      y: -0.014019423775518784
      z: -0.035304666746461745
    orientation:
      x: 0.0049037000453359845
      y: -0.009900982640163196
      z: 0.0024929655280551016
      w: 0.999935852638248
  covariance:
  - 1.8753771998423218e-05
  - -7.287371718457084e-06
  - -3.417265208039721e-08
  - 5.011894700201398e-07
  - 2.2597602679409227e-06
  - 1.129523468757738e-05
  - -7.2873717184586006e-06
  - 1.823858264595483e-05
  - -1.1802401537773452e-06
  - -2.630221670145073e-06
  - 8.763853172190789e-08
  - -3.4107750917185764e-07
  - -3.417265208099956e-08
  - -1.1802401537756048e-06
  - 1.1446737259633475e-05
  - -1.192114370971644e-06
  - 2.371977840384697e-07
  - -1.1911210999605096e-06
  - 5.011894700205279e-07
  - -2.6302216701447345e-06
  - -1.1921143709713238e-06
  - 2.220793269451766e-05
  - 3.7373473958825387e-06
  - -7.975107764911792e-07
  - 2.259760267941388e-06
  - 8.763853172220393e-08
  - 2.371977840390178e-07
  - 3.737347395882541e-06
  - 2.2789806724119135e-05
  - 4.105583001214061e-06
  - 1.1295234687578537e-05
  - -3.4107750917120415e-07
  - -1.1911210999605956e-06
  - -7.975107764909826e-07
  - 4.105583001213554e-06
  - 4.959735651358354e-05
twist:
  twist:
    linear:
      x: 0.0
      y: 0.0
      z: 0.0
    angular:
      x: 0.0
      y: 0.0
      z: 0.0
  covariance:
  - 0.0
  - 0.0
  - 0.0
  - 0.0
  - 0.0
  - 0.0
  - 0.0
  - 0.0
  - 0.0
  - 0.0
  - 0.0
  - 0.0
  - 0.0
  - 0.0
  - 0.0
  - 0.0
  - 0.0
  - 0.0
  - 0.0
  - 0.0
  - 0.0
  - 0.0
  - 0.0
  - 0.0
  - 0.0
  - 0.0
  - 0.0
  - 0.0
  - 0.0
  - 0.0
  - 0.0
  - 0.0
  - 0.0
  - 0.0
  - 0.0
  - 0.0
---
header:
  stamp:
    sec: 1753353011
    nanosec: 908637523
  frame_id: map
child_frame_id: odom
pose:
  pose:
    position:
      x: -0.007287113249669451
      y: -0.01427707753647231
      z: -0.03411735814271242
    orientation:
      x: 0.0037051903129124123
      y: -0.008328562802513583
      z: 0.0023437877769021316
      w: 0.9999557056515682
  covariance:
  - 2.3724581403213407e-05
  - -1.1446543469450146e-05
  - 3.405365546536624e-07
  - 4.0670546992082386e-07
  - 2.306223122995463e-06
  - 1.12292289342775e-05
  - -1.1446543469449966e-05
  - 2.3546598248544204e-05
  - -1.760375620715239e-06
  - -3.3464253689895284e-06
  - 6.917049220159004e-07
  - -2.3724650129897977e-06
  - 3.4053655465357983e-07
  - -1.7603756207140367e-06
  - 1.1623292471562824e-05
  - -1.0789716905370868e-06
  - 1.338032854667365e-07
  - -7.51810573204889e-07
  - 4.0670546992088315e-07
  - -3.346425368989399e-06
  - -1.0789716905369513e-06
  - 2.238152100031015e-05
  - 3.722180021720852e-06
  - -3.668702021528443e-07
  - 2.3062231229957574e-06
  - 6.917049220160581e-07
  - 1.3380328546716866e-07
  - 3.722180021720881e-06
  - 2.3145853223394263e-05
  - 4.060100416441246e-06
  - 1.1229228934277711e-05
  - -2.3724650129898574e-06
  - -7.518105732054489e-07
  - -3.66870202152618e-07
  - 4.060100416440681e-06
  - 5.16515741425825e-05
twist:
  twist:
    linear:
      x: 0.0
      y: 0.0
      z: 0.0
    angular:
      x: 0.0
      y: 0.0
      z: 0.0
  covariance:
  - 0.0
  - 0.0
  - 0.0
  - 0.0
  - 0.0
  - 0.0
  - 0.0
  - 0.0
  - 0.0
  - 0.0
  - 0.0
  - 0.0
  - 0.0
  - 0.0
  - 0.0
  - 0.0
  - 0.0
  - 0.0
  - 0.0
  - 0.0
  - 0.0
  - 0.0
  - 0.0
  - 0.0
  - 0.0
  - 0.0
  - 0.0
  - 0.0
  - 0.0
  - 0.0
  - 0.0
  - 0.0
  - 0.0
  - 0.0
  - 0.0
  - 0.0
---
header:
  stamp:
    sec: 1753353012
    nanosec: 6448507
  frame_id: map
child_frame_id: odom
pose:
  pose:
    position:
      x: -0.008698400646498272
      y: -0.01564839244375621
      z: -0.03761075733408481
    orientation:
      x: 0.0030400506091254123
      y: -0.006087792614197422
      z: 0.0019116234470353479
      w: 0.9999750209725518
  covariance:
  - 1.8644288777838407e-05
  - -8.20196516994532e-06
  - 2.6937184722145116e-07
  - 7.15266718057233e-07
  - 1.8493059289262861e-06
  - 1.0561911748805636e-05
  - -8.201965169944963e-06
  - 2.0182107212242445e-05
  - -1.6390461730352662e-06
  - -3.308337761421002e-06
  - 4.616785584296855e-07
  - -3.00131353029135e-07
  - 2.6937184722136524e-07
  - -1.639046173034064e-06
  - 1.1690682732064105e-05
  - -1.2309512814525476e-06
  - 2.335689372762923e-07
  - -1.1358550066367749e-06
  - 7.152667180572256e-07
  - -3.3083377614209447e-06
  - -1.2309512814524396e-06
  - 2.2818749195760095e-05
  - 3.5615536244193828e-06
  - -8.345812322789596e-07
  - 1.8493059289265917e-06
  - 4.6167855842984646e-07
  - 2.3356893727666134e-07
  - 3.5615536244194086e-06
  - 2.319416827824375e-05
  - 3.5543613217897977e-06
  - 1.0561911748806436e-05
  - -3.0013135302890544e-07
  - -1.1358550066372951e-06
  - -8.345812322787434e-07
  - 3.5543613217892145e-06
  - 5.193943020721427e-05
twist:
  twist:
    linear:
      x: 0.0
      y: 0.0
      z: 0.0
    angular:
      x: 0.0
      y: 0.0
      z: 0.0
  covariance:
  - 0.0
  - 0.0
  - 0.0
  - 0.0
  - 0.0
  - 0.0
  - 0.0
  - 0.0
  - 0.0
  - 0.0
  - 0.0
  - 0.0
  - 0.0
  - 0.0
  - 0.0
  - 0.0
  - 0.0
  - 0.0
  - 0.0
  - 0.0
  - 0.0
  - 0.0
  - 0.0
  - 0.0
  - 0.0
  - 0.0
  - 0.0
  - 0.0
  - 0.0
  - 0.0
  - 0.0
  - 0.0
  - 0.0
  - 0.0
  - 0.0
  - 0.0
---
header:
  stamp:
    sec: 1753353012
    nanosec: 108580589
  frame_id: map
child_frame_id: odom
pose:
  pose:
    position:
      x: -0.00941423239299978
      y: -0.0140598496853241
      z: -0.041114929066274127
    orientation:
      x: 0.0013627583762488191
      y: -0.008191447183916114
      z: 0.0032429918810171453
      w: 0.9999602622535455
  covariance:
  - 1.9420486171982874e-05
  - -8.900087378591036e-06
  - 2.0343441325773406e-07
  - 9.80799056030975e-07
  - 2.1024032272747003e-06
  - 1.0265775827596413e-05
  - -8.900087378592888e-06
  - 1.9821145872882904e-05
  - -1.298389673318887e-06
  - -2.9204477148093752e-06
  - 1.4982936661069026e-07
  - 2.3675221325653164e-07
  - 2.0343441325688213e-07
  - -1.2983896733178216e-06
  - 1.133873889847821e-05
  - -1.326841197770201e-06
  - 2.0159682812125402e-07
  - -1.140053511997147e-06
  - 9.807990560310217e-07
  - -2.9204477148093007e-06
  - -1.3268411977703127e-06
  - 2.239490985616284e-05
  - 3.4535867035553237e-06
  - -8.519252954129167e-07
  - 2.1024032272757714e-06
  - 1.4982936661144242e-07
  - 2.0159682812209934e-07
  - 3.4535867035553516e-06
  - 2.3005747041896443e-05
  - 3.951142203922614e-06
  - 1.0265775827600201e-05
  - 2.3675221325922912e-07
  - -1.1400535119953602e-06
  - -8.519252954126703e-07
  - 3.9511422039219785e-06
  - 5.188870833745926e-05
twist:
  twist:
    linear:
      x: 0.0
      y: 0.0
      z: 0.0
    angular:
      x: 0.0
      y: 0.0
      z: 0.0
  covariance:
  - 0.0
  - 0.0
  - 0.0
  - 0.0
  - 0.0
  - 0.0
  - 0.0
  - 0.0
  - 0.0
  - 0.0
  - 0.0
  - 0.0
  - 0.0
  - 0.0
  - 0.0
  - 0.0
  - 0.0
  - 0.0
  - 0.0
  - 0.0
  - 0.0
  - 0.0
  - 0.0
  - 0.0
  - 0.0
  - 0.0
  - 0.0
  - 0.0
  - 0.0
  - 0.0
  - 0.0
  - 0.0
  - 0.0
  - 0.0
  - 0.0
  - 0.0
---
header:
  stamp:
    sec: 1753353012
    nanosec: 208544969
  frame_id: map
child_frame_id: odom
pose:
  pose:
    position:
      x: -0.009989636262206503
      y: -0.013519438189002317
      z: -0.039766481797195066
    orientation:
      x: 0.00213245517261111
      y: -0.007859497359693497
      z: 0.002557379614995843
      w: 0.9999635697092036
  covariance:
  - 2.4572005167775653e-05
  - -1.198966393580236e-05
  - -9.640933478873026e-08
  - 7.898138806541108e-07
  - 2.7543969219770614e-06
  - 1.1011527335624244e-05
  - -1.1989663935802619e-05
  - 2.2368545578647913e-05
  - -1.2505153599619942e-06
  - -3.5507229614559124e-06
  - 1.6888885633034455e-07
  - -1.7107771258673977e-06
  - -9.640933478902098e-08
  - -1.2505153599612317e-06
  - 1.1674647699338001e-05
  - -1.1624524807550853e-06
  - 6.677534941966357e-08
  - -1.0353011338514725e-06
  - 7.898138806538781e-07
  - -3.550722961456065e-06
  - -1.1624524807553218e-06
  - 2.2790858751333604e-05
  - 3.831158288586888e-06
  - -4.0980151995108023e-07
  - 2.754396921977788e-06
  - 1.688888563308011e-07
  - 6.677534942024262e-08
  - 3.8311582885869194e-06
  - 2.3413691761818212e-05
  - 4.0645803591204816e-06
  - 1.101152733562591e-05
  - -1.7107771258662948e-06
  - -1.03530113385116e-06
  - -4.098015199507643e-07
  - 4.064580359119787e-06
  - 5.349835658429547e-05
twist:
  twist:
    linear:
      x: 0.0
      y: 0.0
      z: 0.0
    angular:
      x: 0.0
      y: 0.0
      z: 0.0
  covariance:
  - 0.0
  - 0.0
  - 0.0
  - 0.0
  - 0.0
  - 0.0
  - 0.0
  - 0.0
  - 0.0
  - 0.0
  - 0.0
  - 0.0
  - 0.0
  - 0.0
  - 0.0
  - 0.0
  - 0.0
  - 0.0
  - 0.0
  - 0.0
  - 0.0
  - 0.0
  - 0.0
  - 0.0
  - 0.0
  - 0.0
  - 0.0
  - 0.0
  - 0.0
  - 0.0
  - 0.0
  - 0.0
  - 0.0
  - 0.0
  - 0.0
  - 0.0
---
header:
  stamp:
    sec: 1753353012
    nanosec: 308510065
  frame_id: map
child_frame_id: odom
pose:
  pose:
    position:
      x: -0.00973088742338724
      y: -0.011841097887680625
      z: -0.037280833705566244
    orientation:
      x: 0.0023560400378560766
      y: -0.006269132355409952
      z: 0.002475630566849292
      w: 0.999974508829113
  covariance:
  - 2.116698977979453e-05
  - -1.0082043087536014e-05
  - 4.4026242566255765e-07
  - 1.0235664104367045e-06
  - 1.9877178767060876e-06
  - 1.0895734140905402e-05
  - -1.0082043087536336e-05
  - 2.1488660519312424e-05
  - -1.6636852000820378e-06
  - -3.3968931663069186e-06
  - 3.6452354091583586e-07
  - -9.657281248322339e-07
  - 4.4026242566049216e-07
  - -1.6636852000788953e-06
  - 1.1481334829244735e-05
  - -1.2675682159654572e-06
  - 1.8307372841218654e-07
  - -1.0272265657593064e-06
  - 1.0235664104364868e-06
  - -3.396893166306835e-06
  - -1.2675682159649507e-06
  - 2.296053719094996e-05
  - 3.936171958072778e-06
  - -2.912697025995802e-07
  - 1.98771787670634e-06
  - 3.645235409159786e-07
  - 1.830737284128234e-07
  - 3.9361719580728065e-06
  - 2.3251374995079813e-05
  - 3.7269326733548552e-06
  - 1.0895734140904008e-05
  - -9.657281248333717e-07
  - -1.0272265657602017e-06
  - -2.912697025992766e-07
  - 3.726932673354208e-06
  - 5.454899687935946e-05
twist:
  twist:
    linear:
      x: 0.0
      y: 0.0
      z: 0.0
    angular:
      x: 0.0
      y: 0.0
      z: 0.0
  covariance:
  - 0.0
  - 0.0
  - 0.0
  - 0.0
  - 0.0
  - 0.0
  - 0.0
  - 0.0
  - 0.0
  - 0.0
  - 0.0
  - 0.0
  - 0.0
  - 0.0
  - 0.0
  - 0.0
  - 0.0
  - 0.0
  - 0.0
  - 0.0
  - 0.0
  - 0.0
  - 0.0
  - 0.0
  - 0.0
  - 0.0
  - 0.0
  - 0.0
  - 0.0
  - 0.0
  - 0.0
  - 0.0
  - 0.0
  - 0.0
  - 0.0
  - 0.0
---
header:
  stamp:
    sec: 1753353012
    nanosec: 408603191
  frame_id: map
child_frame_id: odom
pose:
  pose:
    position:
      x: -0.01258050023785024
      y: -0.013078238060360566
      z: -0.03549290829229769
    orientation:
      x: 0.003902148870672038
      y: -0.006197080628545495
      z: 0.002109298472789562
      w: 0.9999709597211845
  covariance:
  - 2.0347891158451673e-05
  - -9.261439632366254e-06
  - 2.437005384025948e-07
  - 6.543428567923071e-07
  - 1.6404693890943263e-06
  - 1.0253477096948723e-05
  - -9.261439632363017e-06
  - 2.1119116565794905e-05
  - -1.4522238543620631e-06
  - -2.9542766798233673e-06
  - 7.302983883035886e-07
  - 7.407028017726328e-08
  - 2.4370053840345565e-07
  - -1.4522238543620415e-06
  - 1.1906391924369678e-05
  - -1.2866514514626855e-06
  - 1.732555882133077e-07
  - -1.1090124297534294e-06
  - 6.543428567918884e-07
  - -2.9542766798236845e-06
  - -1.2866514514628638e-06
  - 2.3185564714758305e-05
  - 4.162132715403738e-06
  - -5.342720456733324e-07
  - 1.640469389094056e-06
  - 7.302983883034494e-07
  - 1.7325558821346637e-07
  - 4.16213271540372e-06
  - 2.337956471170113e-05
  - 3.5711067293608756e-06
  - 1.0253477096946532e-05
  - 7.407028017576869e-08
  - -1.109012429754754e-06
  - -5.342720456731742e-07
  - 3.571106729360369e-06
  - 5.085082856759422e-05
twist:
  twist:
    linear:
      x: 0.0
      y: 0.0
      z: 0.0
    angular:
      x: 0.0
      y: 0.0
      z: 0.0
  covariance:
  - 0.0
  - 0.0
  - 0.0
  - 0.0
  - 0.0
  - 0.0
  - 0.0
  - 0.0
  - 0.0
  - 0.0
  - 0.0
  - 0.0
  - 0.0
  - 0.0
  - 0.0
  - 0.0
  - 0.0
  - 0.0
  - 0.0
  - 0.0
  - 0.0
  - 0.0
  - 0.0
  - 0.0
  - 0.0
  - 0.0
  - 0.0
  - 0.0
  - 0.0
  - 0.0
  - 0.0
  - 0.0
  - 0.0
  - 0.0
  - 0.0
  - 0.0
---
header:
  stamp:
    sec: 1753353012
    nanosec: 508573055
  frame_id: map
child_frame_id: odom
pose:
  pose:
    position:
      x: -0.010038608231880682
      y: -0.009871147559439207
      z: -0.030113277804998728
    orientation:
      x: 0.005168533118887261
      y: -0.008838582338083802
      z: 0.002436049030257038
      w: 0.999944614162531
  covariance:
  - 1.939211679494821e-05
  - -9.455032568008825e-06
  - 6.361398726034489e-07
  - 1.3173188803624612e-06
  - 1.8791800441192294e-06
  - 1.0231786754494218e-05
  - -9.455032568009042e-06
  - 2.0175622915034288e-05
  - -1.5345747083692854e-06
  - -3.575489699506026e-06
  - 1.23883806077593e-07
  - -1.3983192582817327e-06
  - 6.361398726028604e-07
  - -1.534574708367778e-06
  - 1.1486078059721459e-05
  - -1.2540051131654336e-06
  - 2.2591335059153622e-07
  - -7.198847357606837e-07
  - 1.3173188803624598e-06
  - -3.5754896995059454e-06
  - -1.2540051131653226e-06
  - 2.3045048290395663e-05
  - 4.187150649707993e-06
  - -3.3769005536867786e-07
  - 1.8791800441194352e-06
  - 1.2388380607786066e-07
  - 2.2591335059199643e-07
  - 4.187150649707956e-06
  - 2.314520752177444e-05
  - 3.481662437289339e-06
  - 1.023178675449399e-05
  - -1.3983192582818428e-06
  - -7.198847357612473e-07
  - -3.3769005536860596e-07
  - 3.4816624372889408e-06
  - 5.15404846373494e-05
twist:
  twist:
    linear:
      x: 0.0
      y: 0.0
      z: 0.0
    angular:
      x: 0.0
      y: 0.0
      z: 0.0
  covariance:
  - 0.0
  - 0.0
  - 0.0
  - 0.0
  - 0.0
  - 0.0
  - 0.0
  - 0.0
  - 0.0
  - 0.0
  - 0.0
  - 0.0
  - 0.0
  - 0.0
  - 0.0
  - 0.0
  - 0.0
  - 0.0
  - 0.0
  - 0.0
  - 0.0
  - 0.0
  - 0.0
  - 0.0
  - 0.0
  - 0.0
  - 0.0
  - 0.0
  - 0.0
  - 0.0
  - 0.0
  - 0.0
  - 0.0
  - 0.0
  - 0.0
  - 0.0
---
header:
  stamp:
    sec: 1753353012
    nanosec: 608453750
  frame_id: map
child_frame_id: odom
pose:
  pose:
    position:
      x: -0.010170495952091546
      y: -0.009184845048843667
      z: -0.028942660377913515
    orientation:
      x: 0.0021894990020718476
      y: -0.0067378441651201795
      z: 0.0026826623987970086
      w: 0.9999713050245282
  covariance:
  - 1.843041084428175e-05
  - -8.00075066189102e-06
  - 2.4577363938708207e-07
  - 8.090238127758906e-07
  - 1.5817726724784053e-06
  - 9.267824810431246e-06
  - -8.000750661892456e-06
  - 1.9399012394434615e-05
  - -1.4059980737608536e-06
  - -3.1094131351009953e-06
  - 4.6585994884736375e-07
  - 4.0278199359866636e-07
  - 2.457736393862296e-07
  - -1.4059980737592033e-06
  - 1.1582903855480761e-05
  - -1.353304576461089e-06
  - 2.4738460416229353e-07
  - -1.1077786689387369e-06
  - 8.090238127762273e-07
  - -3.1094131351006065e-06
  - -1.3533045764606797e-06
  - 2.3405181855039207e-05
  - 4.395152224587359e-06
  - -5.179746969794242e-07
  - 1.5817726724789093e-06
  - 4.658599488477875e-07
  - 2.473846041629452e-07
  - 4.395152224587351e-06
  - 2.3734724031497768e-05
  - 3.3873636723668643e-06
  - 9.267824810432805e-06
  - 4.0278199359975585e-07
  - -1.1077786689382465e-06
  - -5.179746969793107e-07
  - 3.387363672366486e-06
  - 4.971488026381879e-05
twist:
  twist:
    linear:
      x: 0.0
      y: 0.0
      z: 0.0
    angular:
      x: 0.0
      y: 0.0
      z: 0.0
  covariance:
  - 0.0
  - 0.0
  - 0.0
  - 0.0
  - 0.0
  - 0.0
  - 0.0
  - 0.0
  - 0.0
  - 0.0
  - 0.0
  - 0.0
  - 0.0
  - 0.0
  - 0.0
  - 0.0
  - 0.0
  - 0.0
  - 0.0
  - 0.0
  - 0.0
  - 0.0
  - 0.0
  - 0.0
  - 0.0
  - 0.0
  - 0.0
  - 0.0
  - 0.0
  - 0.0
  - 0.0
  - 0.0
  - 0.0
  - 0.0
  - 0.0
  - 0.0
---
header:
  stamp:
    sec: 1753353012
    nanosec: 708231687
  frame_id: map
child_frame_id: odom
pose:
  pose:
    position:
      x: -0.011150976000300124
      y: -0.01170761905931523
      z: -0.026527237621443316
    orientation:
      x: 0.0036173287399997606
      y: -0.006472261729862662
      z: 0.002316041971017457
      w: 0.9999698299000584
  covariance:
  - 2.1269772167067133e-05
  - -8.518884812066884e-06
  - 2.6008994810994966e-07
  - 7.093740434387107e-07
  - 2.9166100569331167e-06
  - 1.0363848640885608e-05
  - -8.518884812066282e-06
  - 2.0567041565761156e-05
  - -1.7786566245960243e-06
  - -3.5999113976525417e-06
  - -1.971576975965839e-07
  - -4.0075263699364775e-07
  - 2.6008994811103397e-07
  - -1.7786566245966132e-06
  - 1.170049640344538e-05
  - -1.205688167282696e-06
  - 2.328050155809752e-07
  - -9.338483894304148e-07
  - 7.093740434386914e-07
  - -3.599911397652598e-06
  - -1.2056881672831675e-06
  - 2.3244122206623005e-05
  - 3.837359947562774e-06
  - -6.703731767438439e-07
  - 2.9166100569333488e-06
  - -1.9715769759643588e-07
  - 2.3280501558121172e-07
  - 3.837359947562774e-06
  - 2.3334000866890094e-05
  - 3.6199951882316563e-06
  - 1.0363848640885808e-05
  - -4.0075263699367274e-07
  - -9.33848389431016e-07
  - -6.703731767437191e-07
  - 3.619995188231242e-06
  - 5.06471607795348e-05
twist:
  twist:
    linear:
      x: 0.0
      y: 0.0
      z: 0.0
    angular:
      x: 0.0
      y: 0.0
      z: 0.0
  covariance:
  - 0.0
  - 0.0
  - 0.0
  - 0.0
  - 0.0
  - 0.0
  - 0.0
  - 0.0
  - 0.0
  - 0.0
  - 0.0
  - 0.0
  - 0.0
  - 0.0
  - 0.0
  - 0.0
  - 0.0
  - 0.0
  - 0.0
  - 0.0
  - 0.0
  - 0.0
  - 0.0
  - 0.0
  - 0.0
  - 0.0
  - 0.0
  - 0.0
  - 0.0
  - 0.0
  - 0.0
  - 0.0
  - 0.0
  - 0.0
  - 0.0
  - 0.0
---
header:
  stamp:
    sec: 1753353012
    nanosec: 807063102
  frame_id: map
child_frame_id: odom
pose:
  pose:
    position:
      x: -0.008942927836435318
      y: -0.01303187789111831
      z: -0.030760264202194562
    orientation:
      x: 0.0018347714618632258
      y: -0.00867834645768344
      z: 0.0026991610472104723
      w: 0.9999570162991811
  covariance:
  - 1.73882369283902e-05
  - -8.209158157523501e-06
  - 6.030563309875868e-07
  - 1.4132906160817433e-06
  - 2.1042599609037447e-06
  - 8.97851326260179e-06
  - -8.209158157521458e-06
  - 1.9767364843742087e-05
  - -1.5167885020111466e-06
  - -3.408109433175142e-06
  - -3.919940327218677e-08
  - 3.694356014247891e-07
  - 6.030563309868689e-07
  - -1.516788502009134e-06
  - 1.1513211751609394e-05
  - -1.3879172000695194e-06
  - 1.0838439597415994e-07
  - -8.757266925120998e-07
  - 1.4132906160815711e-06
  - -3.40810943317512e-06
  - -1.3879172000691486e-06
  - 2.2984598084862955e-05
  - 3.716624552269317e-06
  - -3.468714073772591e-07
  - 2.104259960903446e-06
  - -3.919940327228227e-08
  - 1.0838439597456623e-07
  - 3.71662455226933e-06
  - 2.2580346679408926e-05
  - 4.1294116092806465e-06
  - 8.978513262600054e-06
  - 3.694356014236878e-07
  - -8.757266925128455e-07
  - -3.4687140737709775e-07
  - 4.129411609280213e-06
  - 4.963772277034218e-05
twist:
  twist:
    linear:
      x: 0.0
      y: 0.0
      z: 0.0
    angular:
      x: 0.0
      y: 0.0
      z: 0.0
  covariance:
  - 0.0
  - 0.0
  - 0.0
  - 0.0
  - 0.0
  - 0.0
  - 0.0
  - 0.0
  - 0.0
  - 0.0
  - 0.0
  - 0.0
  - 0.0
  - 0.0
  - 0.0
  - 0.0
  - 0.0
  - 0.0
  - 0.0
  - 0.0
  - 0.0
  - 0.0
  - 0.0
  - 0.0
  - 0.0
  - 0.0
  - 0.0
  - 0.0
  - 0.0
  - 0.0
  - 0.0
  - 0.0
  - 0.0
  - 0.0
  - 0.0
  - 0.0
---
header:
  stamp:
    sec: 1753353012
    nanosec: 908573627
  frame_id: map
child_frame_id: odom
pose:
  pose:
    position:
      x: -0.01130816517052852
      y: -0.012150279309973944
      z: -0.02997913805211674
    orientation:
      x: 0.002172397039481807
      y: -0.0066222235320218805
      z: 0.0019136758536291206
      w: 0.9999738820045244
  covariance:
  - 2.4159145646288192e-05
  - -1.0466143818656407e-05
  - -2.864998842720377e-07
  - 4.1858099427240324e-07
  - 2.8592247215263063e-06
  - 1.0683389605483284e-05
  - -1.0466143818656072e-05
  - 2.126531847515231e-05
  - -1.3191431766687468e-06
  - -3.732941173528499e-06
  - -6.2377290699073255e-09
  - -1.4227131492148117e-06
  - -2.864998842718216e-07
  - -1.3191431766678219e-06
  - 1.1650767507816442e-05
  - -1.1286390903242614e-06
  - 7.006913334205423e-08
  - -9.16513304856377e-07
  - 4.185809942724088e-07
  - -3.7329411735284076e-06
  - -1.1286390903241314e-06
  - 2.3029298179893814e-05
  - 3.6654814270386526e-06
  - -6.376900574708784e-07
  - 2.859224721526432e-06
  - -6.237729069723308e-09
  - 7.006913334241264e-08
  - 3.6654814270386628e-06
  - 2.289456152329374e-05
  - 3.6563886965669047e-06
  - 1.0683389605483128e-05
  - -1.4227131492148218e-06
  - -9.165133048570228e-07
  - -6.376900574707114e-07
  - 3.656388696566481e-06
  - 5.222888791004276e-05
twist:
  twist:
    linear:
      x: 0.0
      y: 0.0
      z: 0.0
    angular:
      x: 0.0
      y: 0.0
      z: 0.0
  covariance:
  - 0.0
  - 0.0
  - 0.0
  - 0.0
  - 0.0
  - 0.0
  - 0.0
  - 0.0
  - 0.0
  - 0.0
  - 0.0
  - 0.0
  - 0.0
  - 0.0
  - 0.0
  - 0.0
  - 0.0
  - 0.0
  - 0.0
  - 0.0
  - 0.0
  - 0.0
  - 0.0
  - 0.0
  - 0.0
  - 0.0
  - 0.0
  - 0.0
  - 0.0
  - 0.0
  - 0.0
  - 0.0
  - 0.0
  - 0.0
  - 0.0
  - 0.0
---
header:
  stamp:
    sec: 1753353013
    nanosec: 8549928
  frame_id: map
child_frame_id: odom
pose:
  pose:
    position:
      x: -0.007921429126127187
      y: -0.01312899572187925
      z: -0.0319087037164638
    orientation:
      x: 0.003698702713665793
      y: -0.008211094937621516
      z: 0.0033976132195209685
      w: 0.9999536757982582
  covariance:
  - 2.0487426828712262e-05
  - -9.54753590589977e-06
  - 4.973304505598136e-07
  - 8.752691262457414e-07
  - 2.0616663544134357e-06
  - 1.0483527885272022e-05
  - -9.547535905898363e-06
  - 2.063957125359805e-05
  - -1.6082446423683925e-06
  - -3.477139720346994e-06
  - 1.278781555805019e-07
  - -1.1762781779097481e-06
  - 4.973304505612205e-07
  - -1.6082446423686966e-06
  - 1.1525258379382101e-05
  - -1.18723915569748e-06
  - 2.817770392732342e-07
  - -8.032678211332004e-07
  - 8.752691262458293e-07
  - -3.477139720347019e-06
  - -1.1872391556975955e-06
  - 2.2678908106082057e-05
  - 3.5175722193198254e-06
  - -9.514972732297029e-07
  - 2.0616663544136856e-06
  - 1.2787815558071852e-07
  - 2.817770392735504e-07
  - 3.5175722193198216e-06
  - 2.259074955403791e-05
  - 3.2517580744972643e-06
  - 1.0483527885274102e-05
  - -1.1762781779083518e-06
  - -8.032678211327886e-07
  - -9.514972732295587e-07
  - 3.2517580744967934e-06
  - 5.221984465581549e-05
twist:
  twist:
    linear:
      x: 0.0
      y: 0.0
      z: 0.0
    angular:
      x: 0.0
      y: 0.0
      z: 0.0
  covariance:
  - 0.0
  - 0.0
  - 0.0
  - 0.0
  - 0.0
  - 0.0
  - 0.0
  - 0.0
  - 0.0
  - 0.0
  - 0.0
  - 0.0
  - 0.0
  - 0.0
  - 0.0
  - 0.0
  - 0.0
  - 0.0
  - 0.0
  - 0.0
  - 0.0
  - 0.0
  - 0.0
  - 0.0
  - 0.0
  - 0.0
  - 0.0
  - 0.0
  - 0.0
  - 0.0
  - 0.0
  - 0.0
  - 0.0
  - 0.0
  - 0.0
  - 0.0
---
header:
  stamp:
    sec: 1753353013
    nanosec: 108520507
  frame_id: map
child_frame_id: odom
pose:
  pose:
    position:
      x: -0.00895710678134433
      y: -0.014284135627808902
      z: -0.031030481320307887
    orientation:
      x: 0.004694471092440958
      y: -0.009047808496566521
      z: 0.0022166118788497983
      w: 0.9999455913869648
  covariance:
  - 2.3074169233531014e-05
  - -9.732919911525666e-06
  - 4.5981451299933857e-07
  - 7.497790972393753e-08
  - 1.81662308440037e-06
  - 1.0541164266408542e-05
  - -9.732919911525489e-06
  - 2.2054133284362404e-05
  - -1.6505817037244253e-06
  - -2.766709485847969e-06
  - 7.413092775160204e-07
  - 3.8298373203192895e-07
  - 4.598145129993547e-07
  - -1.6505817037234728e-06
  - 1.1833004990754507e-05
  - -1.315044628367941e-06
  - 5.645363383613688e-08
  - -7.614720133312071e-07
  - 7.497790972398602e-08
  - -2.7667094858479275e-06
  - -1.3150446283679503e-06
  - 2.242685422001611e-05
  - 3.355347580141593e-06
  - -1.6025557442496586e-06
  - 1.8166230844006019e-06
  - 7.413092775162271e-07
  - 5.645363383651243e-08
  - 3.355347580141596e-06
  - 2.2900485501055565e-05
  - 3.1485083671189454e-06
  - 1.054116426640881e-05
  - 3.8298373203189105e-07
  - -7.614720133318028e-07
  - -1.6025557442494998e-06
  - 3.1485083671184313e-06
  - 4.9752066815036306e-05
twist:
  twist:
    linear:
      x: 0.0
      y: 0.0
      z: 0.0
    angular:
      x: 0.0
      y: 0.0
      z: 0.0
  covariance:
  - 0.0
  - 0.0
  - 0.0
  - 0.0
  - 0.0
  - 0.0
  - 0.0
  - 0.0
  - 0.0
  - 0.0
  - 0.0
  - 0.0
  - 0.0
  - 0.0
  - 0.0
  - 0.0
  - 0.0
  - 0.0
  - 0.0
  - 0.0
  - 0.0
  - 0.0
  - 0.0
  - 0.0
  - 0.0
  - 0.0
  - 0.0
  - 0.0
  - 0.0
  - 0.0
  - 0.0
  - 0.0
  - 0.0
  - 0.0
  - 0.0
  - 0.0
---
header:
  stamp:
    sec: 1753353013
    nanosec: 208490610
  frame_id: map
child_frame_id: odom
pose:
  pose:
    position:
      x: -0.008541191994299395
      y: -0.010729348594124688
      z: -0.028735656106523975
